{"meta":{"total_listings":30},"data":{"listings":[{"name":"Advanced Pain Management","type":"doctor","phone":"(781) 662-2243","website":"","city":"Stoneham","state":"Massachusetts","zipcode":"02180","latitude":42.452716,"longitude":-71.089490,"slug":"advanced-pain-management"},{"name":"Sticky Ypsi Delivery","type":"delivery","phone":"(734) 879-1204","website":"http:\/\/www.stickyypsi.com\/","city":"Ypsilanti","state":"Michigan","zipcode":"48197","latitude":42.256057,"longitude":-83.629786,"slug":"sticky-ypsi-delivery"},{"name":"Trulieve - Cape Coral","type":"dispensary","phone":"(844) 878-5438","website":"","city":"Cape Coral","state":"Florida","zipcode":"33914","latitude":26.605941,"longitude":-81.973418,"slug":"trulieve-cape-coral"},{"name":"Liberty Health Sciences - Bonita Springs","type":"dispensary","phone":"(239) 221-6180","website":"","city":"Bonita Springs","state":"Florida","zipcode":"34135","latitude":26.381907,"longitude":-81.807275,"slug":"liberty-health-sciences-bonita-springs"},{"name":"DocMJ","type":"doctor","phone":"(888) 908-0143","website":"https:\/\/docmj.com\/","city":"Bradenton","state":"Florida","zipcode":"34205","latitude":27.489701,"longitude":-82.575018,"slug":"docmj-28"},{"name":"Abilene","type":"delivery","phone":"406-210-5370","website":"","city":"Valier","state":"Montana","zipcode":"59486","latitude":48.308553,"longitude":-112.253009,"slug":"abilene"},{"name":"Telluride Bud Company - Telluride","type":"dispensary","phone":"970-239-6039","website":"","city":"Telluride","state":"Colorado","zipcode":"81435","latitude":37.936293,"longitude":-107.810339,"slug":"telluride-bud-company-2-2"},{"name":"Buddy Boy Walnut â€“ RiNo MED","type":"dispensary","phone":"(303) 308-0420","website":"http:\/\/www.buddyboybrands.com","city":"Denver","state":"Colorado","zipcode":"80205","latitude":39.770535,"longitude":-104.971398,"slug":"buddy-boy-brands-walnut-2-5"},{"name":"New York Pain Medicine and Physical Therapy","type":"doctor","phone":"(212) 245-7900","website":"http:\/\/nypainmedicine.com\/","city":"New York","state":"New York","zipcode":"10017","latitude":40.756960,"longitude":-73.975896,"slug":"new-york-pain-medicine-and-physical-therapy"},{"name":"CommCan, Inc. - Medical Only (Millis)","type":"dispensary","phone":"5085339333","website":"https:\/\/commcan.com\/","city":"Millis","state":"Massachusetts","zipcode":"02054","latitude":42.166120,"longitude":-71.362601,"slug":"commcan-millis-coming-soon"},{"name":"Canna Care Docs - North Smithfield","type":"doctor","phone":"(401) 735-1861","website":"https:\/\/cannacaredocs.com\/north-smithfield\/","city":"North Smithfield","state":"Rhode Island","zipcode":"02896","latitude":42.000000,"longitude":-71.580000,"slug":"canna-care-docs-5961"},{"name":"Curaleaf - SW Miami","type":"dispensary","phone":" (786) 577-3976","website":"","city":"Miami","state":"Florida","zipcode":"33187","latitude":25.585427,"longitude":-80.500582,"slug":"curaleaf-south-miami"},{"name":"Dr. Amarish Dave","type":"doctor","phone":"(815) 337-1563","website":"http:\/\/www.neurologistcare.com\/","city":"Woodstock","state":"Illinois","zipcode":"60098","latitude":42.312857,"longitude":-88.444750,"slug":"dr-amarish-dave"},{"name":"Livwell Enlightened Health - Trinidad","type":"dispensary","phone":"(719) 422-8251","website":"https:\/\/livwell.com\/locations\/livwell-trinidad","city":"Trinidad","state":"Colorado","zipcode":"81082","latitude":37.166152,"longitude":-104.509946,"slug":"livwell-trinidad"},{"name":"Apothecary Farms Pueblo REC","type":"dispensary","phone":"(719) 544-5323","website":"","city":"Pueblo","state":"Colorado","zipcode":"81006","latitude":38.245949,"longitude":-104.575213,"slug":"apothecary-farms-pueblo-2"},{"name":"Pure Roots - Ann Arbor","type":"dispensary","phone":"844-325-3900","website":"http:\/\/www.followpureroots.com","city":"Ann Arbor","state":"Michigan","zipcode":"48104","latitude":42.255488,"longitude":-83.691412,"slug":"pure-roots"},{"name":"Remedy 313","type":"dispensary","phone":"(313) 636-2380","website":"https:\/\/www.remedy313.com\/","city":"Detroit","state":"Michigan","zipcode":"48219","latitude":42.443477,"longitude":-83.240423,"slug":"remedy-313"},{"name":"Dr. Green Relief","type":"doctor","phone":"(239) 349-2999","website":"https:\/\/www.drgreenrelief.com\/locations\/fort-myers-marijuana-doctors\/","city":"Fort Myers","state":"Florida","zipcode":"33901","latitude":26.633661,"longitude":-81.872984,"slug":"dr-green-relief-2"},{"name":"Julius Mingroni DO","type":"doctor","phone":"856-506-6565","website":"","city":"Sewell","state":"New Jersey","zipcode":"08080","latitude":39.740693,"longitude":-75.073578,"slug":"julius-mingroni"},{"name":"Orlando Psychiatric Associates","type":"doctor","phone":"(407) 375-0480","website":"http:\/\/www.orlandopa.com","city":"Orlando","state":"Florida","zipcode":"32809","latitude":28.451137,"longitude":-81.414183,"slug":"orlando-psychiatric-associates-4"},{"name":"Rocky Mountain Cannabis - Alameda","type":"dispensary","phone":"303-736-6999","website":"https:\/\/rockymountaincannabis.com","city":"Denver","state":"Colorado","zipcode":"80223","latitude":39.711506,"longitude":-104.991940,"slug":"alameda-wellness"},{"name":"Mana Supply Co - Denver","type":"dispensary","phone":"(720) 749-4642","website":"https:\/\/www.manasupply.com","city":"Denver","state":"Colorado","zipcode":"80204","latitude":39.729616,"longitude":-105.023246,"slug":"mana-supply-co-denver"},{"name":"Cheap Greens (NOW OPEN!)","type":"delivery","phone":"(207) 808-9513","website":"","city":"South Portland","state":"Maine","zipcode":"04106","latitude":43.630000,"longitude":-70.340000,"slug":"cheap-greens"},{"name":"Ohio Marijuana Card","type":"doctor","phone":"(419) 216-2996","website":"https:\/\/www.ohiomarijuanacard.com\/toledo-marijuana-doctor","city":"Toledo","state":"Ohio","zipcode":"43606","latitude":41.684052,"longitude":-83.628484,"slug":"ohio-marijuana-card-9"},{"name":"Pure Lapeer Delivery (MED)","type":"delivery","phone":"810-660-8403","website":"https:\/\/www.puredispo.com","city":"Flint","state":"Michigan","zipcode":"48502","latitude":42.914831,"longitude":-83.726172,"slug":"pure-lapeer-delivery-5"},{"name":"Starbuds - Brighton Blvd.","type":"dispensary","phone":"720-387-8952","website":"","city":"Denver","state":"Colorado","zipcode":"80216","latitude":39.781838,"longitude":-104.966494,"slug":"starbuds-adult-use"},{"name":"Dr. Edward J. Greaney","type":"doctor","phone":"(212) 726-7488","website":"","city":"New York","state":"New York","zipcode":"10016","latitude":40.744688,"longitude":-73.974932,"slug":"dr-edward-j-greaney"},{"name":"Dr. Itzhak Medan","type":"doctor","phone":"(443) 676-2585","website":"","city":"Brooklyn","state":"New York","zipcode":"11210","latitude":40.632160,"longitude":-73.946963,"slug":"dr-itzhak-medan"},{"name":"Serenity Medical Evaluations","type":"doctor","phone":"267-490 3374","website":"http:\/\/www.serenitymedicalevaluations.com","city":"Lancaster","state":"Pennsylvania","zipcode":"17601","latitude":40.070000,"longitude":-76.340000,"slug":"serenity-medical-evaluations-48"},{"name":"Miracle Leaf Health Centers","type":"doctor","phone":"(786) 953-8026","website":"http:\/\/miracleleaffl.com","city":"Miami","state":"Florida","zipcode":"33127","latitude":25.801872,"longitude":-80.194844,"slug":"miracle-leaf"}]}}